City_long,City_lat,city,pm1.0_atm,pm2.5_atm,pm10.0_atm,pressure,temperature,humidity,voc
-49.273056,-25.427778,Curitiba,5.041050955414013,6.405573248407643,6.8150955414012735,906.6886305732484,74.84076433121018,72.67834394904459,87.54898089171974
-50.38277800000001,-25.874167,Sao Mateus do Sul,3.4076576808423944,4.259427475390851,4.863427882862597,922.6540259816852,77.15260352999206,59.90738596152609,63.79683448068799
-53.055,-26.081111,Francisco Beltrao,1.004031746031746,1.4145714285714286,1.825301587301588,940.0912063492063,71.97777777777777,56.02857142857143,92.79260317460316
-54.093889,-25.295278,Medianeira,0.5721974522292994,0.8636624203821658,1.2813853503184711,962.9498407643312,80.81210191082802,46.90764331210191,73.28452229299363
-54.588056,-25.547778,Foz do Iguacu,1.941799363057325,2.580127388535032,3.155254777070064,990.95550955414,78.85031847133757,47.79936305732484,69.59436305732483
-54.05666699999999,-24.556111,Marechal Candido Rondon,1.076301587301587,1.4804603174603177,1.8914603174603173,963.36,78.72380952380952,47.97142857142857,66.22495238095239
-52.383056,-24.045556000000005,Campo Mourao,1.9859578404610256,2.3072212364776057,2.767325017692852,942.339049641088,81.92498230714791,56.796547366292586,76.98183459710847
-50.161944,-25.095,Ponta Grossa,6.947707006369426,8.6490923566879,9.389888535031846,907.649076433121,78.76433121019109,60.8343949044586,82.38764331210191
-51.162778,-23.310278000000004,Londrina,0.9317142857142856,1.2409999999999997,1.4897142857142858,947.0434285714286,82.88571428571429,57.71428571428572,76.24969696969697
