City_long,City_lat,city,pm1.0_atm,pm2.5_atm,pm10.0_atm,pressure,temperature,humidity,voc
-49.273056,-25.427778,Curitiba,0.5511623531071738,0.7364653151518816,0.8224510894761242,912.3596853520388,71.5976839813751,65.58555562274495,87.56244186046513
-50.382778000000016,-25.874167,Sao Mateus do Sul,2.161040804947283,2.8547081305758315,3.2706238594890507,927.918360959043,76.9338199513382,55.88756589618816,82.95934286293593
-53.05499999999999,-26.081111000000003,Francisco Beltrao,3.5756666666666668,4.355194444444444,4.888041666666666,942.4112916666668,83.9888888888889,50.888888888888886,109.955625
-54.093889,-25.295278000000003,Medianeira,2.5639236111111114,3.255743055555556,3.817576388888889,964.499361111111,91.9875,42.1375,95.67579166666668
-54.58805600000001,-25.547778,Foz do Iguacu,5.994888888888888,8.085986111111112,9.690402777777775,991.7639166666668,91.14305555555556,41.0,98.09005555555557
-54.056667,-24.556110999999994,Marechal Candido Rondon,4.596777777777778,5.355618055555556,5.928868055555555,965.0963333333332,89.85694444444445,45.76111111111111,79.96683333333333
-52.383056,-24.045556,Campo Mourao,4.282895833333333,4.868298611111111,5.393909722222222,945.9380277777776,84.77222222222223,53.07847222222222,75.98261805555555
-50.161944,-25.094999999999995,Ponta Grossa,1.0693472222222222,1.3994861111111112,1.6215694444444444,912.5546805555556,78.7875,55.54444444444445,83.35475
-51.162778,-23.310278,Londrina,0.6158730158730159,0.8622619047619049,1.1577777777777778,950.4942857142858,87.53174603174604,50.34920634920635,116.03125
