City_long,City_lat,city,pm1.0_atm,pm2.5_atm,pm10.0_atm,pressure,temperature,humidity,voc
-49.273056,-25.427778,Curitiba,3.190439431695256,3.994283659789832,4.387561360299799,903.9016641651212,73.29621194560346,74.16161721526812,90.58522948539638
-50.38277800000001,-25.874167,Sao Mateus do Sul,6.080434512979136,7.633365750849102,8.419744617297429,919.0713676613296,79.11125363901019,61.274308588064045,85.32602777777777
-53.055,-26.081111,Francisco Beltrao,4.633187613843352,5.91568306010929,6.769599271402551,935.7214571948998,85.63570127504553,54.40983606557377,104.40865209471764
-54.093889,-25.295278000000003,Medianeira,3.236951388888889,3.953965277777778,4.307208333333334,958.8727916666666,88.34722222222223,53.96666666666667,119.27656944444443
-54.58805600000001,-25.547778,Foz do Iguacu,4.047027777777778,5.055465277777778,5.7131388888888885,986.0621944444443,87.43194444444444,54.415277777777774,85.42184722222221
-54.05666699999998,-24.556110999999994,Marechal Candido Rondon,2.2638509749303624,2.7337674094707523,3.012130919220056,959.7050974930362,86.51810584958217,53.88440111420613,77.07621169916435
-52.383056,-24.045556,Campo Mourao,1.774017361111111,2.091690972222222,2.389649305555556,940.549236111111,81.08888888888889,61.87152777777778,91.04166666666669
-50.161944,-25.094999999999995,Ponta Grossa,3.586541666666667,4.551374999999999,5.058347222222222,905.2398888888888,73.84166666666667,72.69027777777778,78.45258333333334
-51.162778,-23.310278,Londrina,0.5211864406779662,0.6877966101694913,0.8616101694915255,946.0137288135592,80.08474576271186,62.813559322033896,109.63641509433964
