City_long,City_lat,city,pm1.0_atm,pm2.5_atm,pm10.0_atm,pressure,temperature,humidity,voc
-49.273056,-25.427778,Curitiba,4.800419580419581,5.866573426573427,6.23006993006993,920.2471188811188,52.6,69.04195804195804,68.44039270687237
-50.38277800000001,-25.874167000000003,Sao Mateus do Sul,6.4604748603351965,9.058798882681565,9.719134078212292,935.167346368715,57.41899441340782,58.917597765363126,67.64385474860335
-53.05499999999999,-26.081111,Francisco Beltrao,3498.1181058495818,3498.1181058495818,3498.1181058495818,954.0179665738162,61.80222841225627,46.87743732590529,97.40725244072524
-54.09388899999999,-25.295278,Medianeira,4.974130737134909,6.182058414464533,6.57635605006954,977.7130041724616,64.50625869262865,47.81084840055633,133.46453407510432
-54.588056,-25.547778,Foz do Iguacu,5.732253313696613,8.027982326951399,8.892930780559645,1007.2874815905744,61.5419734904271,45.403534609720175,84.7448377581121
-54.056667,-24.556110999999994,Marechal Candido Rondon,3447.937638888889,3447.937638888889,3447.937638888889,978.2213194444446,69.73472222222222,38.825,72.22594142259415
-50.161944,-25.094999999999995,Ponta Grossa,1.6594444444444443,2.5262499999999997,2.8345833333333337,922.0754166666667,56.91388888888889,65.25833333333334,64.89136490250696
