City_long,City_lat,city,pm1.0_atm,pm2.5_atm,pm10.0_atm,pressure,temperature,humidity,voc
-49.273056,-25.427778,Curitiba,8.545711206896552,11.144644396551724,11.745775862068964,913.5295905172416,71.8125,76.23060344827586,103.86206896551724
-48.991111,-24.65722199999999,Adrianopolis,8.989849785407724,11.954313304721028,13.267875536480686,993.5068669527898,78.22317596566523,73.90557939914163,
-50.382778000000016,-25.874167,Sao Mateus do Sul,12.020758796433327,15.238350368136748,16.380901611291996,929.4559505882788,76.67395848749445,61.74802057125943,79.49363946647921
-53.05499999999998,-26.081111000000007,Francisco Beltrao,1.5537768240343348,2.54549356223176,2.911759656652361,946.1743776824034,77.30901287553648,65.60944206008584,153.2469957081545
-54.093889,-25.295278,Medianeira,3.714642857142857,4.885000000000001,5.621071428571429,969.435,81.64285714285714,56.5,222.0214285714285
-54.58805600000002,-25.547778,Foz do Iguacu,1.9778111587982832,2.4380686695278966,2.9442489270386267,996.2587553648068,82.33476394849785,59.36909871244635,100.23918454935624
-52.46527800000001,-23.073056,Paranavai,3332.080769230769,3332.080769230769,3332.080769230769,,,,
-50.16194399999999,-25.095,Ponta Grossa,6.113690987124462,7.471695278969956,8.002725321888411,914.5644635193132,74.78540772532189,66.32188841201717,166.58098712446352
