City_long,City_lat,city,pm1.0_atm,pm2.5_atm,pm10.0_atm,pressure,temperature,humidity,voc
-49.273056,-25.427778,Curitiba,0.6456826568265684,0.8496955719557195,0.964142066420664,912.835,73.97970479704797,71.11254612546125,110.17472324723248
-48.991111,-24.657222,Adrianopolis,1.6534337349397588,2.1096586345381527,2.716244979919679,992.7327309236948,79.87550200803213,70.1726907630522,
-50.38277800000001,-25.874167,Sao Mateus do Sul,0.9364471185153028,1.310197322009985,1.7051062242240071,928.4213064358584,79.6779832320382,55.04158074668982,84.21996872965053
-53.05499999999999,-26.081111,Francisco Beltrao,1.0704059040590406,1.6243911439114394,1.9209963099631,943.3444280442806,79.92250922509226,61.68265682656826,162.5911808118081
-54.09388899999999,-25.295278,Medianeira,9.072952029520296,10.678634686346864,11.526143911439114,965.4424354243542,89.93357933579335,47.61623616236162,235.0231365313653
-54.588056,-25.547778,Foz do Iguacu,9.782169117647058,11.965661764705882,13.36797794117647,992.656286764706,87.93014705882354,55.088235294117645,137.40996323529413
-54.056667,-24.556111,Marechal Candido Rondon,684.9533823529412,686.1168014705883,687.6414522058824,966.381801470588,87.19117647058823,48.76470588235294,83.71213235294117
-52.46527799999999,-23.07305600000001,Paranavai,3331.8497802197803,3331.8497802197803,3331.8497802197803,,,,
-50.16194399999999,-25.095,Ponta Grossa,0.694778597785978,0.977140221402214,1.2682472324723244,913.6267158671589,76.41697416974169,63.09225092250922,114.02143911439114
