City_long,City_lat,city,pm1.0_atm,pm2.5_atm,pm10.0_atm,pressure,temperature,humidity,voc
-49.273056,-25.427778,Curitiba,4.1610570236439495,5.295132127955493,5.995271210013908,908.7292350486788,69.77607788595272,58.78442280945758,94.82475660639776
-50.382778,-25.874167000000003,Sao Mateus do Sul,140.94166666666666,142.56180555555557,143.62618055555555,925.9447569444444,69.95069444444445,52.10138888888889,82.89305555555555
-53.055,-26.081111,Francisco Beltrao,3332.61057023644,3332.61057023644,3332.61057023644,943.495438108484,69.58692628650904,58.816411682892905,102.53407510431154
-54.093889,-25.295278000000003,Medianeira,5.5575,6.631944444444445,7.146111111111111,966.9484444444442,71.56111111111112,58.375,98.25972222222222
-54.58805600000001,-25.547778,Foz do Iguacu,5.077083333333333,6.917361111111111,7.621805555555556,994.9708611111108,74.31805555555556,54.96111111111111,88.57023643949931
-54.056667,-24.556110999999994,Marechal Candido Rondon,3336.612222222222,3336.612222222222,3336.612222222222,967.760375,71.30277777777778,59.827777777777776,78.29305555555555
-50.161944,-25.094999999999995,Ponta Grossa,3.8512499999999994,4.860833333333332,5.255416666666667,911.3832638888888,72.77638888888889,55.52638888888889,106.56527777777778
