City_long,City_lat,city,pm1.0_atm,pm2.5_atm,pm10.0_atm,pressure,temperature,humidity,voc
-49.273056,-25.427778,Curitiba,4.537979539641944,5.377109974424553,6.095204603580562,916.5978260869564,71.15089514066496,61.42966751918159,76.30907928388747
-50.38277800000001,-25.874167,Sao Mateus do Sul,6.9015164974619285,8.526846446700507,9.375640862944165,933.4833502538072,72.58248730964468,51.772842639593904,76.86763959390862
-53.05499999999999,-26.081111,Francisco Beltrao,3355.8989717223644,3355.8989717223644,3355.8989717223644,949.1564524421592,67.9331619537275,58.19023136246787,119.9006443298969
-54.093889,-25.295278,Medianeira,2.969465648854962,3.741005089058524,4.331692111959288,970.8818575063614,80.18829516539441,41.80152671755725,79.10468193384224
-54.588056000000016,-25.547778,Foz do Iguacu,4.653239795918368,6.518801020408163,7.496964285714287,998.674056122449,78.11479591836735,46.880102040816325,92.00727040816328
-54.05666699999998,-24.556111,Marechal Candido Rondon,1668.1948727735369,1668.6502290076337,1668.9727226463106,971.9514503816794,76.69974554707379,46.50127226463104,72.7273027989822
-52.465278,-23.073056000000005,Paranavai,3331.533743589744,3331.533743589744,3331.533743589744,,,,
-50.16194399999999,-25.095,Ponta Grossa,7.886488549618321,10.098155216284988,10.798791348600506,918.5544529262088,70.6793893129771,59.79898218829516,58.74669211195929
