City_long,City_lat,city,pm1.0_atm,pm2.5_atm,pm10.0_atm,pressure,temperature,humidity,voc
-49.273056,-25.427778,Curitiba,3.3237198996655524,4.054688294314381,4.498710033444816,907.3480089186176,76.01339464882943,75.2214994425864,80.77909698996658
-50.38277800000001,-25.874167,Sao Mateus do Sul,7.20615326688815,9.473006866002216,10.474146843853822,922.0426055924696,81.9131007751938,61.21955149501661,72.29191722037652
-53.05500000000001,-26.081111,Francisco Beltrao,5.295050167224081,6.455518394648829,6.9001337792642135,938.1445150501672,82.94314381270902,65.23076923076923,106.16347826086955
-54.09388899999999,-25.295278,Medianeira,6.492349999999999,7.736516666666667,8.446566666666667,960.6296666666668,90.22333333333331,54.81333333333333,114.47196666666666
-54.588056,-25.547778,Foz do Iguacu,7.797733333333332,9.5591,10.918733333333334,987.6667666666668,91.89666666666666,47.0,85.01483333333333
-54.056667,-24.556111,Marechal Candido Rondon,7.826789297658863,9.226688963210702,9.81891304347826,962.2125752508362,87.81605351170569,56.79933110367893,69.00167224080268
-52.383056,-24.045556,Campo Mourao,3.0917666666666666,3.5619000000000005,4.041583333333333,942.6212666666668,81.65333333333334,66.52,102.40123333333332
-50.161944,-25.095,Ponta Grossa,1.2685880398671094,1.6259634551495017,1.9208471760797343,908.7435548172756,75.27574750830564,75.3156146179402,98.19388704318938
