City_long,City_lat,city,pm1.0_atm,pm2.5_atm,pm10.0_atm,pressure,temperature,humidity,voc
-49.273056,-25.427778,Curitiba,15.072008752608394,19.92976002782286,22.57107818417188,910.1732616991268,85.51196479635212,53.067122652446095,99.99103524229074
-50.382778000000016,-25.874167,Sao Mateus do Sul,11.2725,13.875493421052632,14.967609649122805,925.4583991228072,88.47697368421052,47.30372807017544,74.23395833333333
-53.05499999999998,-26.081111000000003,Francisco Beltrao,3.308530701754386,4.170833333333333,4.706732456140351,941.7738596491228,89.28070175438596,49.80482456140351,127.61896929824564
-54.093889,-25.295278,Medianeira,0.981984649122807,1.3689254385964913,1.910723684210526,963.5466228070176,96.88377192982456,38.32017543859649,111.78076754385964
-54.58805600000002,-25.547778,Foz do Iguacu,1412.1537636761489,1412.4796061269144,1412.9872647702407,990.0357768052515,98.58862144420132,38.1925601750547,76.34575492341357
-54.056666999999976,-24.556110999999994,Marechal Candido Rondon,1.635581140350877,2.131962719298245,2.670449561403509,964.7606140350877,91.125,45.03728070175438,87.74241228070176
-52.383056,-24.045556,Campo Mourao,2.017119815668203,2.428029953917051,3.040426267281106,944.9807834101384,89.89400921658986,48.47235023041475,88.06066820276499
-52.465278000000005,-23.073056000000005,Paranavai,0.6130769230769231,0.8426739926739926,1.0816849816849816,,,,
-50.16194399999999,-25.095000000000002,Ponta Grossa,7.470274122807017,9.39875,10.354089912280703,911.2982675438595,84.46052631578948,53.57236842105263,103.29375
