City_long,City_lat,city,pm1.0_atm,pm2.5_atm,pm10.0_atm,pressure,temperature,humidity,voc
-49.273056,-25.427778,Curitiba,3.465958333333333,4.050604166666667,4.443479166666667,910.3988333333332,70.95972222222223,67.34166666666667,75.50118055555555
-50.382778,-25.874167,Sao Mateus do Sul,7.811403598748262,9.642036948501003,10.367999966195333,926.9811603693402,76.6829923891207,53.07418096121155,78.00571218706536
-53.05499999999999,-26.081111,Francisco Beltrao,3332.0225525946703,3332.0225525946703,3332.0225525946703,943.2251612903226,80.38709677419355,52.64095371669004,92.0619074333801
-54.093889,-25.295278000000003,Medianeira,8.090541666666667,9.632993055555554,10.586284722222222,965.56875,84.55555555555556,54.204166666666666,96.81211111111112
-54.58805600000001,-25.547778,Foz do Iguacu,9.438708333333333,11.56763888888889,12.577888888888891,993.1695555555556,85.39166666666667,49.99722222222222,83.11740277777778
-54.056666999999976,-24.556111,Marechal Candido Rondon,1194.0542280945758,1194.6155980528513,1195.0327607788597,965.9161057023643,87.89290681502086,49.54102920723227,79.15578581363005
-50.16194400000001,-25.094999999999995,Ponta Grossa,3.97047287899861,5.004826147426981,5.3858275382475655,912.017440890125,78.55910987482615,54.61474269819193,75.24305980528513
