City_long,City_lat,city,pm1.0_atm,pm2.5_atm,pm10.0_atm,pressure,temperature,humidity,voc
-49.273056,-25.427778,Curitiba,2.6099508978675647,3.3638618508315483,3.917227026153794,909.9225117334964,74.88881236608509,70.75640240791756,102.67243801652894
-50.382778000000016,-25.874167,Sao Mateus do Sul,6.325288065843621,7.947736625514402,8.682993827160493,925.2614609053498,81.39300411522635,60.18724279835391,75.76207818930041
-53.05499999999999,-26.081111000000007,Francisco Beltrao,10.421818181818182,13.318636363636363,14.002768595041324,941.2793801652892,78.45454545454545,71.0,121.54913223140495
-54.093889,-25.295278,Medianeira,4.891446280991736,5.765826446280991,6.514669421487604,963.4752479338844,84.16115702479338,59.33057851239669,229.9153305785124
-54.588056000000016,-25.547778,Foz do Iguacu,1667.1751859504132,1667.4578719008264,1667.7940495867767,990.6211570247934,86.35950413223141,57.63636363636363,125.24169421487603
-54.056666999999976,-24.556110999999994,Marechal Candido Rondon,1669.066517800382,1669.6095549904644,1669.885329783853,965.0985251112525,81.52209154481882,65.96392244119517,95.4623235855054
-52.383056,-24.045556,Campo Mourao,2.893285123966942,3.346095041322314,3.868946280991736,944.5619008264464,78.74793388429752,66.85950413223141,98.31830578512395
-52.46527800000002,-23.073056,Paranavai,2.9816129032258067,3.645000000000001,3.980483870967742,,,,
-50.16194399999999,-25.095000000000002,Ponta Grossa,3.75702479338843,5.05059917355372,5.521219008264463,910.6836363636364,76.71900826446281,68.4504132231405,87.29433884297522
