City_long,City_lat,city,pm1.0_atm,pm2.5_atm,pm10.0_atm,pressure,temperature,humidity,voc
-49.273056,-25.427778,Curitiba,12.343598615916957,15.355363321799308,16.36089965397924,913.2388235294118,66.34602076124567,67.31487889273356,81.98269896193771
-50.382778,-25.874167,Sao Mateus do Sul,13.468166089965395,16.629065743944636,18.11903114186851,929.5751038062284,71.54498269896195,57.01903114186851,71.88581314878893
-54.093889,-25.295278,Medianeira,0.7546712802768166,0.9110726643598616,1.0446366782006922,970.7246366782008,71.2318339100346,61.46712802768166,213.78546712802768
-54.588056,-25.547778,Foz do Iguacu,0.7826989619377163,1.278546712802768,1.57439446366782,998.9529757785468,72.44982698961938,59.89273356401384,109.33910034602076
-50.161944,-25.095,Ponta Grossa,11.589965397923876,15.76955017301038,17.624567474048444,915.2675086505192,66.08650519031141,65.6712802768166,85.37024221453287
