City_long,City_lat,city,pm1.0_atm,pm2.5_atm,pm10.0_atm,pressure,temperature,humidity,voc
-49.273056,-25.427778,Curitiba,2.793419170243205,3.300286123032904,3.5311874105865524,916.98765379113,69.00858369098712,64.88555078683834,92.73962804005724
-50.38277800000001,-25.874167,Sao Mateus do Sul,17.991253408316293,23.413831373551467,25.59632455691888,933.966777607362,68.39616564417179,58.98258350374915,84.60489594218042
-53.05499999999999,-26.081111,Francisco Beltrao,3385.670588235294,3385.670588235294,3385.670588235294,950.1541470588236,64.28382352941176,67.95441176470588,163.6485294117647
-54.09388899999999,-25.295278000000003,Medianeira,10.198321678321678,12.48223776223776,13.533846153846154,972.308,71.58601398601398,59.25454545454546,152.54685314685315
-54.58805600000001,-25.547778,Foz do Iguacu,12.589722222222225,17.109444444444442,19.356944444444444,1000.3680694444444,71.04444444444445,59.81944444444444,110.62638888888888
-54.05666699999998,-24.556110999999994,Marechal Candido Rondon,2796.661977715878,2797.040529247911,2797.461977715877,972.5613788300836,76.29247910863509,49.60306406685237,102.84401114206128
-52.465278000000005,-23.073056000000005,Paranavai,3332.932929292929,3332.932929292929,3332.932929292929,,,,
-50.161944,-25.094999999999995,Ponta Grossa,10.344027777777775,12.987916666666663,13.616805555555556,918.728125,71.95138888888889,58.93333333333333,90.18888888888888
