City_long,City_lat,city,pm1.0_atm,pm2.5_atm,pm10.0_atm,pressure,temperature,humidity,voc
-49.273056,-25.427778,Curitiba,1.2783680555555554,1.762875,2.4133680555555554,918.8158472222224,64.89166666666667,68.6375,68.90594444444444
-50.382778,-25.874167000000003,Sao Mateus do Sul,2.4611805555555555,3.348163194444445,4.250552083333334,936.045625,72.39791666666667,48.95763888888889,82.39929166666667
-53.05499999999999,-26.081111000000003,Francisco Beltrao,3347.6085613540195,3347.6085613540195,3347.6085613540195,950.8299858956276,71.18476727785614,53.57686882933709,83.56801128349788
-54.09388899999999,-25.295278,Medianeira,2.2798261474269816,2.9094784422809457,3.4678233657858133,972.8158553546592,74.44784422809458,54.13769123783032,98.54632823365786
-54.58805600000001,-25.547778,Foz do Iguacu,2.1302777777777773,2.907194444444445,3.5088611111111114,1001.1445416666668,77.83472222222223,44.96805555555556,85.58073611111112
-54.056666999999976,-24.556111,Marechal Candido Rondon,1667.1754033379698,1667.4263073713494,1667.683497913769,973.2049652294854,75.99860917941585,51.14603616133519,82.86283727399164
-50.161944,-25.094999999999995,Ponta Grossa,2.341875,3.1846041666666665,3.896611111111111,920.2832500000001,68.25555555555556,61.12222222222222,70.60180555555554
