City_long,City_lat,city,pm1.0_atm,pm2.5_atm,pm10.0_atm,pressure,temperature,humidity,voc
-49.273056,-25.427778,Curitiba,5.786736111111111,7.325520833333334,7.935753472222223,912.8176319444444,76.97083333333333,59.86458333333333,84.48284722222223
-48.99111099999999,-24.657222,Adrianopolis,10.823875,12.369527777777778,13.623180555555557,992.6024722222222,84.94166666666666,54.69305555555555,
-50.382778,-25.874167000000003,Sao Mateus do Sul,8.642833333333334,10.735645833333333,11.963090277777775,927.9767083333334,80.21736111111112,47.21388888888889,69.21882638888889
-53.05499999999999,-26.081111,Francisco Beltrao,16.603561452513965,17.356229050279328,17.96336592178771,943.45437150838,82.05586592178771,45.502793296089386,131.49547486033518
-54.09388899999999,-25.295278,Medianeira,5.215375521557719,6.500556328233658,7.348164116828929,965.4471210013908,89.3741307371349,37.3643949930459,116.42133518776076
-54.58805600000001,-25.547778,Foz do Iguacu,8.94186111111111,11.214041666666668,12.53375,992.8355,86.52361111111111,45.4375,101.74618055555555
-50.161944,-25.094999999999995,Ponta Grossa,7.572131944444444,9.669340277777778,10.718354166666668,913.1332222222222,81.4125,49.53194444444444,83.019875
