City_long,City_lat,city,pm1.0_atm,pm2.5_atm,pm10.0_atm,pressure,temperature,humidity,voc
-49.273056,-25.427778,Curitiba,6.995211267605634,8.46394366197183,9.148028169014085,912.5668732394366,69.59718309859154,68.6943661971831,75.8774647887324
-50.382778,-25.874167,Sao Mateus do Sul,9.34296118814573,11.702442337321006,13.071106692949067,929.1450196664854,75.49592736088454,57.84939958310676,72.1267217630854
-53.05499999999999,-26.081111,Francisco Beltrao,3331.139766081872,3331.139766081872,3331.139766081872,946.0112134502924,74.89912280701755,62.85087719298246,121.77046783625732
-54.09388899999999,-25.295278,Medianeira,5.411404728789986,6.339638386648123,7.010431154381084,968.5523504867872,79.0528511821975,61.34214186369958,138.61613351877608
-54.58805600000001,-25.547778,Foz do Iguacu,7.863472222222223,10.374166666666666,11.533333333333331,996.4014722222224,80.38472222222222,58.59583333333333,106.47361111111113
-54.05666699999998,-24.556110999999994,Marechal Candido Rondon,2587.983983286908,2588.1969359331474,2589.282311977716,969.1064763231198,78.33844011142061,62.97493036211699,81.78272980501393
-52.465278000000005,-23.073056000000005,Paranavai,3331.3487329434697,3331.348927875244,3331.349707602339,,,,
-50.161944,-25.094999999999995,Ponta Grossa,6.513333333333334,8.457083333333333,9.277916666666668,914.5777083333332,74.96388888888889,62.018055555555556,72.37222222222222
