City_long,City_lat,city,pm1.0_atm,pm2.5_atm,pm10.0_atm,pressure,temperature,humidity,voc
-49.273056,-25.427778,Curitiba,3.2549660633484168,4.318054298642535,4.9935294117647056,910.7783936651584,71.21266968325793,74.96153846153847,110.67515837104072
-50.382778000000016,-25.874167,Sao Mateus do Sul,2.504438502673797,3.2698922254216374,3.927094354175236,926.0794506375978,80.11644385026739,56.680172768408056,65.92436065405184
-53.05499999999999,-26.081111000000003,Francisco Beltrao,6.533303167420815,7.891493212669683,8.408190045248869,940.5009954751132,79.28054298642535,68.90497737556561,165.80095022624434
-54.09388899999999,-25.295278000000003,Medianeira,3.711809954751131,4.527986425339367,5.133461538461538,961.7939819004524,87.95475113122171,51.085972850678736,88.32221719457013
-54.58805600000001,-25.547778,Foz do Iguacu,735.2546832579185,737.2368325791853,739.1834162895927,988.6980090497736,89.32579185520362,55.09049773755656,107.29058823529412
-54.056666999999976,-24.556110999999994,Marechal Candido Rondon,1408.6704945208123,1409.3742958010762,1410.1805499560376,962.9243805622868,85.48141794085478,53.749458514721965,61.79099148890325
-52.383056,-24.045556,Campo Mourao,3.805135746606336,4.373981900452489,4.865882352941176,943.956923076923,80.73755656108597,62.710407239819006,96.34701357466064
-52.465278,-23.073056,Paranavai,0.12325,0.2195,0.36675,,,,
-50.161944000000005,-25.094999999999995,Ponta Grossa,3.9244796380090494,5.123529411764705,5.866968325791855,911.3873755656108,76.53846153846153,65.15837104072398,77.1210407239819
