City_long,City_lat,city,pm1.0_atm,pm2.5_atm,pm10.0_atm,pressure,temperature,humidity,voc
-49.273056,-25.427778,Curitiba,3.751276517346624,4.687611869301499,5.08521587177407,907.6325265318342,77.37383615360841,60.66575104311544,106.79637500000004
-50.382778,-25.874167000000003,Sao Mateus do Sul,5.137503472222223,6.382802083333333,7.063409722222223,922.7435416666668,84.91180555555556,45.204166666666666,64.24684722222221
-53.05499999999999,-26.081111000000003,Francisco Beltrao,2.1271388888888887,2.8137222222222222,3.2959444444444443,939.5438194444444,84.83472222222223,37.422222222222224,102.30790277777778
-54.09388899999999,-25.295278,Medianeira,1.6404311543810846,2.2187691237830323,2.691766342141864,962.0521557719054,92.81084840055632,29.86230876216968,91.57366295264626
-54.58805600000001,-25.547778,Foz do Iguacu,7.476451388888889,10.069284722222225,11.677979166666669,989.4491805555556,90.62916666666666,31.97361111111111,91.99470833333334
-54.05666699999999,-24.556111,Marechal Candido Rondon,1.36209811827957,1.8100286738351257,2.245930107526882,962.689170922939,97.84623655913978,24.70226254480287,120.56515927419356
-52.383056,-24.045556,Campo Mourao,31.25167013888889,31.791128472222223,33.264479166666675,942.699125,89.11736111111111,34.64305555555556,76.82845138888888
-50.16194400000001,-25.094999999999995,Ponta Grossa,4.841585535465925,5.866446453407511,6.3046662030598055,908.021585535466,86.13630041724618,46.18915159944367,81.49860917941585
-51.162778,-23.310278,Londrina,1.7941089108910886,2.41039603960396,2.9439108910891094,946.9471287128712,93.2079207920792,32.26732673267327,97.79694736842104
