City_long,City_lat,city,pm1.0_atm,pm2.5_atm,pm10.0_atm,pressure,temperature,humidity,voc
-49.273056,-25.427778,Curitiba,11.335258620689654,13.194482758620689,14.212155172413794,906.4806034482758,74.02586206896552,71.51724137931035,79.93662337662336
-50.382778000000016,-25.874167,Sao Mateus do Sul,4.088849206349206,5.078839285714285,5.867023809523809,923.7914285714284,75.18452380952381,61.68055555555556,89.61234126984127
-53.05499999999999,-26.081111000000003,Francisco Beltrao,3331.9096812749003,3331.9096812749003,3331.9096812749003,942.1241434262948,73.70916334661355,65.59362549800797,83.07553784860559
-54.093889,-25.295278000000003,Medianeira,5.648650793650794,6.73390873015873,7.520198412698413,965.3233730158732,78.54761904761905,64.35714285714286,100.81103174603172
-54.05666699999998,-24.556111,Marechal Candido Rondon,1669.8123412698417,1670.4934325396823,1670.7766865079363,965.6453968253968,80.04761904761905,63.71825396825397,57.890753968253975
-52.465278000000005,-23.073056000000005,Paranavai,3332.165438596491,3332.165438596491,3332.165438596491,,,,
-50.16194399999999,-25.095,Ponta Grossa,9.693948412698411,11.828075396825398,12.418015873015872,909.1899603174604,75.82539682539682,68.38095238095238,87.11269841269842
