City_long,City_lat,city,pm1.0_atm,pm2.5_atm,pm10.0_atm,pressure,temperature,humidity,voc
-49.273056,-25.427778,Curitiba,5.558291420118343,7.110207100591716,7.57983727810651,914.177100591716,70.42307692307693,72.30473372781066,82.79754437869823
-48.99111099999999,-24.65722199999999,Adrianopolis,1.8159023668639047,2.0999260355029583,2.6815976331360947,994.1437573964498,78.4319526627219,72.52071005917159,
-50.38277800000001,-25.874167,Sao Mateus do Sul,4.793481538072252,5.784791390921832,6.260769084786672,929.6046888625038,77.76821862348177,58.59916108688882,68.07947018062909
-53.05499999999999,-26.081111,Francisco Beltrao,2.0747774480712167,2.789614243323442,3.199673590504451,945.7348664688428,72.92284866468843,60.94955489614243,123.94005934718102
-54.093889,-25.295278000000003,Medianeira,6.297893175074184,7.516706231454006,7.904658753709199,968.0663798219584,80.0593471810089,56.75074183976261,143.7474183976261
-54.58805600000001,-25.547778,Foz do Iguacu,5.1750445103857565,6.399910979228487,7.023234421364985,995.8572403560833,79.86943620178042,56.41246290801187,123.0154302670623
-50.161944,-25.095,Ponta Grossa,1.4614243323442138,1.8801780415430267,2.1856379821958454,914.5510682492584,76.14243323442136,60.61721068249258,77.10896142433235
