City_long,City_lat,city,pm1.0_atm,pm2.5_atm,pm10.0_atm,pressure,temperature,humidity,voc
-49.273056,-25.427778,Curitiba,7.152222222222223,8.547638888888889,9.606805555555557,910.6355694444444,66.27916666666667,62.833333333333336,72.98194444444445
-50.382778,-25.874167000000003,Sao Mateus do Sul,11.740972222222222,15.56597222222222,17.420972222222222,924.8887777777778,62.484722222222224,59.520833333333336,73.02777777777777
-54.093889,-25.295278000000003,Medianeira,4.735566188197767,5.667783094098883,6.186124401913876,966.5235406698564,69.83732057416267,59.311004784689,155.3062200956938
-54.58805600000001,-25.547778,Foz do Iguacu,4.173991655076495,5.607093184979138,6.201112656467316,994.8270375521558,70.96105702364395,57.11404728789986,112.03894297635604
-50.16194400000001,-25.094999999999995,Ponta Grossa,11.212656467315716,14.384561891515997,15.528233657858136,913.1741307371348,63.42002781641168,69.48956884561892,86.39638386648123
