City_long,City_lat,city,pm1.0_atm,pm2.5_atm,pm10.0_atm,pressure,temperature,humidity,voc
-49.273056,-25.427778,Curitiba,0.9107883817427386,1.0813278008298757,1.203734439834025,913.2179253112034,64.51452282157676,70.59336099585062,81.93775933609959
-50.382778000000016,-25.874167,Sao Mateus do Sul,1.6706611570247931,2.2280991735537192,2.5570247933884294,928.1102479338842,66.25619834710744,56.11157024793389,66.02479338842976
-54.093889,-25.295278,Medianeira,2.9539419087136927,3.6149377593361,3.85103734439834,973.9364730290456,62.572614107883815,64.64730290456431,115.59336099585062
-54.58805600000002,-25.547778,Foz do Iguacu,0.4788381742738589,0.7344398340248964,0.84149377593361,1003.6454771784232,64.42738589211618,57.20331950207469,62.90871369294606
-50.16194399999999,-25.095000000000002,Ponta Grossa,5.121991701244814,6.700414937759336,7.935684647302905,915.2817427385893,68.75933609958506,62.933609958506224,124.9460580912863
