City_long,City_lat,city,pm1.0_atm,pm2.5_atm,pm10.0_atm,pressure,temperature,humidity,voc
-49.273056,-25.427778,Curitiba,9.377786926863411,11.81537377225996,12.620732355539747,914.386015151689,82.4320095924362,61.27597186524693,77.34512019230769
-50.382778000000016,-25.874167,Sao Mateus do Sul,11.750708333333332,14.205559523809525,15.49822619047619,929.634619047619,87.32142857142857,51.73809523809524,72.38791666666668
-53.05499999999999,-26.081111000000003,Francisco Beltrao,0.9567380952380954,1.5231666666666668,1.8805238095238097,944.7964285714286,87.97142857142858,54.523809523809526,125.55492857142858
-54.093889,-25.295278,Medianeira,4.71005980861244,5.737380382775121,6.614988038277512,966.1752870813398,96.19617224880383,42.40909090909091,134.2722966507177
-54.588056000000016,-25.547778,Foz do Iguacu,5.862494061757719,7.039073634204275,7.935154394299288,992.8603087885988,96.6769596199525,43.43467933491687,96.5818052256532
-54.05666699999999,-24.556110999999994,Marechal Candido Rondon,6.452517899761337,7.695477326968973,8.566718377088305,967.159164677804,92.30071599045344,47.37231503579952,81.95109785202862
-52.383056,-24.045556,Campo Mourao,5.26195238095238,6.025559523809524,6.918107142857143,947.5906428571428,88.48333333333333,49.35952380952381,79.49595238095239
-52.465278000000005,-23.073056000000005,Paranavai,1532.0977916666666,1532.371125,1532.6032083333332,,,,
-50.161944,-25.095,Ponta Grossa,6.551238095238096,7.855214285714287,8.59797619047619,914.9890238095238,84.2547619047619,57.911904761904765,87.03969047619047
