City_long,City_lat,city,pm1.0_atm,pm2.5_atm,pm10.0_atm,pressure,temperature,humidity,voc
-49.273056,-25.427778,Curitiba,10.335319888734354,12.753101529902642,13.682280945758,913.1712100139082,81.43254520166899,59.6029207232267,90.78798331015298
-50.382778,-25.874167,Sao Mateus do Sul,8.368602225312934,9.97721488178025,11.001877607788591,928.3294993045896,87.97287899860919,49.648122392211405,73.32841446453409
-53.05499999999999,-26.081111000000003,Francisco Beltrao,0.3880138888888889,0.6807083333333334,0.8936666666666667,943.5096666666666,88.27083333333333,54.27916666666667,133.07424999999998
-54.093889,-25.295278000000003,Medianeira,2.1577638888888893,2.729638888888889,3.2988611111111115,964.9479444444444,96.55277777777778,43.15694444444444,99.007125
-54.58805600000001,-25.547778,Foz do Iguacu,3.7288333333333337,4.663375,5.454472222222223,991.3944861111112,99.25138888888888,39.6875,87.62365277777778
-54.05666699999999,-24.556111,Marechal Candido Rondon,22.541140472879,23.40529207232267,24.634666203059805,966.6928164116828,90.64464534075104,49.27190542420028,95.88760778859526
-52.383056,-24.045556,Campo Mourao,4.108497913769124,4.726564673157163,5.480438108484005,946.3736995827536,87.17663421418636,52.12100139082058,81.15852573018081
-52.465278000000005,-23.073056,Paranavai,1718.0934970530454,1718.379155206287,1718.6925147347742,,,,
-50.16194400000001,-25.094999999999995,Ponta Grossa,6.673998609179418,8.135403337969402,8.961272600834493,913.5706258692628,88.8317107093185,48.69123783031989,95.6883426183844
