City_long,City_lat,city,pm1.0_atm,pm2.5_atm,pm10.0_atm,pressure,temperature,humidity,voc
-49.273056,-25.427778,Curitiba,6.357950001104703,8.56350116546254,9.415220968383377,912.6836080731756,80.43452696582047,60.56857725193876,153.91633569739952
-50.382778000000016,-25.874167,Sao Mateus do Sul,9.222031881752503,11.547937932215373,12.453443486113873,928.3045317436646,82.47218355758821,51.76199984534146,79.51384556185498
-53.05499999999999,-26.081111000000003,Francisco Beltrao,4.1246261682243,5.193271028037384,5.733364485981308,943.7777803738318,87.28504672897196,56.373831775700936,150.04434579439254
-54.093889,-25.295278000000003,Medianeira,2.864322429906541,3.579369158878505,4.176892523364487,965.3140420560748,97.74766355140189,43.23831775700935,174.52030373831772
-54.588056000000016,-25.547778,Foz do Iguacu,1494.984053738318,1495.38875,1495.8620327102803,992.2091822429908,93.9392523364486,49.54205607476636,117.396238317757
-54.05666699999998,-24.556111,Marechal Candido Rondon,5.749918032786885,6.6403161592505855,7.218173302107729,966.3273067915692,92.1615925058548,48.5807962529274,98.69857142857144
-52.383056,-24.045556,Campo Mourao,2.520327102803738,2.984918224299065,3.606144859813084,946.4188785046728,91.07242990654206,46.992990654205606,76.73815420560746
-52.465278,-23.07305600000001,Paranavai,5.061061224489796,5.968326530612244,6.443061224489797,,,,
-50.161944,-25.095,Ponta Grossa,4.427021028037384,5.379415887850468,5.9103738317757015,913.508808411215,85.03271028037383,53.27570093457944,73.38978971962617
