City_long,City_lat,city,pm1.0_atm,pm2.5_atm,pm10.0_atm,pressure,temperature,humidity,voc
-49.273056,-25.427778,Curitiba,10.787616672795243,13.30112842434271,14.111556811913957,910.5064910829196,83.83830514187657,59.28972084329227,87.72526077097507
-50.382778000000016,-25.874167,Sao Mateus do Sul,15.192381756756756,20.277195945945948,23.25969594594595,925.7801801801802,86.4786036036036,51.56193693693694,85.01908783783783
-53.05499999999999,-26.081111000000007,Francisco Beltrao,2.818400900900901,3.622117117117117,4.180810810810811,941.573265765766,85.78828828828829,53.42117117117117,191.38659909909907
-54.09388899999999,-25.295278,Medianeira,2.756587837837838,3.383795045045045,3.98652027027027,963.0323198198198,97.0698198198198,38.59684684684685,184.103018018018
-54.588056000000016,-25.547778,Foz do Iguacu,1447.928412162162,1448.2323648648646,1448.6437049549547,989.6013288288289,96.8536036036036,41.5518018018018,86.65743243243242
-54.05666699999998,-24.556110999999994,Marechal Candido Rondon,3.2134897025171627,3.880697940503433,4.419885583524027,964.315514874142,91.8466819221968,44.05034324942792,91.30816933638444
-52.383056,-24.045556000000005,Campo Mourao,6.291160130718955,7.203071895424836,8.108251633986928,944.6684967320264,85.48366013071896,52.24183006535948,75.5988888888889
-52.465278000000005,-23.073056,Paranavai,7.384752851711027,8.446045627376426,9.267338403041826,,,,
-50.16194399999999,-25.095,Ponta Grossa,10.53537162162162,13.256677927927928,14.191114864864865,911.390518018018,83.66891891891892,57.58108108108108,81.86614864864865
