City_long,City_lat,city,pm1.0_atm,pm2.5_atm,pm10.0_atm,pressure,temperature,humidity,voc
-49.273056,-25.427778,Curitiba,7.297364984160099,9.139958796940194,9.912479630273529,914.4920487173544,82.4644297635605,57.56038769123784,113.04809457579974
-50.382778,-25.874167000000003,Sao Mateus do Sul,9.476833333333332,11.528944444444445,12.65237847222222,929.7100902777778,89.18402777777777,45.84930555555556,80.44128472222222
-53.055,-26.081111,Francisco Beltrao,1.1948956884561892,1.8657719054242,2.26874826147427,944.7103198887344,94.20723226703755,42.58136300417246,156.2182197496523
-54.093889,-25.295278000000003,Medianeira,5.4112691771269175,6.663988842398884,7.709058577405858,966.261059972106,102.04881450488143,36.17573221757322,156.10588563458853
-54.58805600000001,-25.547778,Foz do Iguacu,6.005416666666666,7.24961111111111,8.208458333333333,992.7045,102.35555555555555,35.577777777777776,105.18708333333332
-54.05666699999999,-24.556110999999994,Marechal Candido Rondon,5.4023263888888895,6.305888888888888,6.973625,967.8484034961688,96.03948754789272,39.57708333333333,102.7172440245478
-52.383056,-24.045556,Campo Mourao,6.351488178025035,7.623310152990264,9.40153685674548,947.2606258692628,91.73574408901251,42.85257301808067,90.12385257301808
-52.465278000000005,-23.073056,Paranavai,676.1242436149311,676.7600000000001,677.9439489194499,,,,
-50.161944,-25.094999999999995,Ponta Grossa,6.300430555555555,7.785388888888888,8.61351388888889,914.6962916666666,92.8,42.775,102.51359722222224
