City_long,City_lat,city,pm1.0_atm,pm2.5_atm,pm10.0_atm,pressure,temperature,humidity,voc
-49.273056,-25.427778,Curitiba,9.749928673323824,12.053067047075608,13.262054208273897,911.1757489300998,70.25534950071327,62.76747503566334,87.19142857142857
-50.382778,-25.874167000000003,Sao Mateus do Sul,10.499375,13.12527777777778,14.487222222222222,927.948777777778,73.20069444444445,57.79722222222222,80.09652777777778
-53.05499999999999,-26.081111000000003,Francisco Beltrao,3331.0025,3331.0025,3331.0025,945.9577916666668,70.77083333333333,65.34861111111111,172.09722222222223
-54.093889,-25.295278000000003,Medianeira,1.7635474860335194,2.152374301675977,2.391340782122905,970.1946787709496,72.09078212290503,60.3840782122905,180.7695530726257
-54.58805600000001,-25.547778,Foz do Iguacu,3.1959666203059807,4.379276773296244,4.946314325452017,998.4087343532684,73.20723226703755,58.94575799721836,113.79833101529904
-54.056667,-24.556110999999994,Marechal Candido Rondon,3332.4477777777784,3332.4477777777784,3332.4477777777784,971.1781944444446,70.43055555555556,60.68888888888889,79.70138888888889
-52.465278000000005,-23.073056000000005,Paranavai,3332.482781456954,3332.482781456954,3332.482781456954,,,,
-50.161944,-25.094999999999995,Ponta Grossa,8.877083333333333,11.728333333333335,13.138333333333332,913.7374444444443,69.19722222222222,63.24166666666667,91.84305555555555
