City_long,City_lat,city,pm1.0_atm,pm2.5_atm,pm10.0_atm,pressure,temperature,humidity,voc
-49.273056,-25.427778,Curitiba,3.14912069967457,3.8489935204556014,4.121375929800093,908.6542763540212,74.74465655509066,67.5174279404928,86.02618715083798
-50.382778,-25.874167,Sao Mateus do Sul,3.787413150981301,4.700416000231804,5.2444201485473645,923.574106542652,84.43095251893061,48.2054599366404,72.23768394568073
-53.05499999999999,-26.081111,Francisco Beltrao,5.983988764044945,7.427752808988763,8.497275280898876,938.866095505618,87.85112359550561,38.80196629213483,127.78094101123595
-54.093889,-25.295278000000003,Medianeira,2.2091527777777777,2.8547777777777776,3.4395277777777777,960.9566527777778,95.81111111111112,28.86805555555556,91.58694444444446
-54.58805600000001,-25.547778,Foz do Iguacu,9.146930555555556,12.077465277777778,14.0794375,988.209625,92.89444444444445,32.81944444444444,107.89223611111112
-54.05666699999999,-24.556111,Marechal Candido Rondon,3.652938818565401,4.574002812939521,6.170938818565401,960.826988748242,99.92489451476794,21.803797468354432,128.84218002812938
-52.383056,-24.045556,Campo Mourao,234.17112152777776,234.7212534722222,235.85740972222223,942.2222986111112,90.13333333333333,34.50277777777778,78.40327083333334
-50.16194400000001,-25.094999999999995,Ponta Grossa,3.8569819193324064,4.560924895688457,4.975646731571627,908.6357162726008,85.18776077885953,51.68150208623088,91.604297635605
-51.162778,-23.310278000000004,Londrina,2.219765625,2.7846093750000005,3.373984375,947.24859375,91.78125,39.03125,104.48873015873016
