City_long,City_lat,city,pm1.0_atm,pm2.5_atm,pm10.0_atm,pressure,temperature,humidity,voc
-49.273056,-25.427778,Curitiba,4.1610570236439495,5.295132127955493,5.995271210013908,908.7292350486788,69.77607788595272,58.78442280945758,94.82475660639776
-50.382778,-25.874167,Sao Mateus do Sul,14.92589315181518,16.547974422442245,17.66406834433443,925.8500869774476,70.49155665566556,51.711915566556655,81.65817519251925
-54.093889,-25.295278000000003,Medianeira,5.5575,6.631944444444445,7.146111111111111,966.9484444444442,71.56111111111112,58.375,98.25972222222222
-54.58805600000001,-25.547778,Foz do Iguacu,5.077083333333333,6.917361111111111,7.621805555555556,994.9708611111108,74.31805555555556,54.96111111111111,88.57023643949931
-50.161944,-25.094999999999995,Ponta Grossa,3.85125,4.860833333333332,5.255416666666667,911.3832638888888,72.77638888888889,55.52638888888889,106.56527777777778
