City_long,City_lat,city,pm1.0_atm,pm2.5_atm,pm10.0_atm,pressure,temperature,humidity,voc
-49.273056,-25.427778,Curitiba,2.9229059648793903,3.942096534808149,4.294812367204099,909.4277787151608,74.73076802899638,73.4344300712411,100.32638888888889
-50.38277800000001,-25.874167,Sao Mateus do Sul,6.631227747346799,8.56917482337929,9.69588131399583,924.8496397559989,81.3292536802465,61.07641374373658,75.19471172699261
-53.05499999999999,-26.081111,Francisco Beltrao,4.773959999999999,5.69,6.136959999999999,940.82704,79.18,67.808,157.57096
-54.093889,-25.295278,Medianeira,4.4437992125984245,5.234015748031497,5.821496062992126,962.7875984251968,87.93307086614173,54.69685039370079,205.08996062992125
-54.58805600000001,-25.547778,Foz do Iguacu,1670.1744466403163,1671.0298418972332,1671.6922924901187,989.762371541502,88.48616600790514,59.19367588932806,103.91193675889328
-54.05666699999998,-24.556111,Marechal Candido Rondon,1670.5636675640349,1671.3271655877502,1671.7331537300429,963.7146136908282,85.38627026858796,57.69765958108991,73.99539097756062
-52.383056,-24.045556,Campo Mourao,2.4016929133858267,2.80476377952756,3.442854330708662,943.8064566929136,81.3740157480315,61.41732283464567,84.3504724409449
-52.465278000000005,-23.073056000000005,Paranavai,4.913835616438357,5.705890410958904,6.075205479452055,,,,
-50.161944,-25.095,Ponta Grossa,1.770964566929134,2.2671456692913385,2.546476377952756,910.2379527559056,78.67716535433071,66.73228346456693,98.55838582677166
