City_long,City_lat,city,pm1.0_atm,pm2.5_atm,pm10.0_atm,pressure,temperature,humidity,voc
-49.273056,-25.427778,Curitiba,10.366472222222225,12.734597222222222,14.209333333333335,914.1064583333332,70.56388888888888,62.06805555555555,92.6127361111111
-50.382778,-25.874167000000003,Sao Mateus do Sul,10.670114583333334,12.991447916666669,13.97104513888889,930.9791041666668,75.73125,50.52152777777778,76.57365972222223
-53.055,-26.081111,Francisco Beltrao,3331.8701394700142,3331.8701394700142,3331.8701394700142,946.4562064156206,77.44351464435147,50.96931659693166,119.34622036262202
-54.093889,-25.295278000000003,Medianeira,9.635,11.269534722222224,11.988104166666666,968.3648333333332,87.62916666666666,42.540277777777774,131.83683333333337
-54.58805600000001,-25.547778,Foz do Iguacu,13.88261474269819,18.16735744089013,20.6892628650904,995.6762726008344,85.27260083449235,49.10987482614743,126.19689847009737
-54.056666999999976,-24.556111,Marechal Candido Rondon,1671.3141585535463,1672.1535813630042,1672.5239012517386,969.216926286509,85.12656467315716,45.87343532684284,87.14090403337968
-50.161944,-25.094999999999995,Ponta Grossa,10.804944444444445,13.898124999999997,14.745826388888888,915.9612638888888,77.58194444444445,50.62083333333333,73.0887361111111
