City_long,City_lat,city,pm1.0_atm,pm2.5_atm,pm10.0_atm,pressure,temperature,humidity,voc
-49.273056,-25.427778,Curitiba,6.013774305555556,7.7837916666666676,8.482072916666667,908.74325,77.22083333333333,74.92013888888889,90.17797222222222
-50.382778,-25.874167,Sao Mateus do Sul,6.912161219286045,8.879517061698348,9.633369953446143,923.6425735010046,86.42821337505795,55.13895360067996,69.98769190426518
-53.055,-26.081111,Francisco Beltrao,3.834812239221141,4.737552155771906,5.1129346314325455,939.3577607788596,90.1905424200278,51.76216968011126,113.69613351877608
-54.093889,-25.295278000000003,Medianeira,1.615625,2.001125,2.351847222222222,961.2244722222222,98.43611111111112,42.73194444444445,124.0997222222222
-54.58805600000001,-25.547778,Foz do Iguacu,2.9816041666666666,3.694,4.254763888888889,987.7699583333332,100.01527777777778,39.60833333333333,85.27504166666667
-54.056667,-24.556110999999994,Marechal Candido Rondon,3.3359930555555555,3.909395833333334,4.309576388888889,962.325375,92.45555555555556,49.47916666666666,82.52183333333333
-52.383056,-24.045556,Campo Mourao,1.8716041666666667,2.1625208333333337,2.5135625,943.096625,86.29861111111111,58.977777777777774,82.17669444444445
-50.16194400000001,-25.094999999999995,Ponta Grossa,2.554645340751043,3.353205841446454,3.712273991655077,910.0706536856746,76.778859527121,71.49652294853963,91.88077885952713
