City_long,City_lat,city,pm1.0_atm,pm2.5_atm,pm10.0_atm,pressure,temperature,humidity,voc
-49.273056,-25.427778,Curitiba,0.9300751879699248,1.136842105263158,1.2538345864661653,914.6583458646616,62.00751879699248,70.67669172932331,79.45714285714286
-50.382778,-25.874167000000003,Sao Mateus do Sul,3.732222222222222,4.99375,5.574861111111111,930.0411666666666,63.50833333333333,57.58611111111111,71.63194444444444
-53.05499999999999,-26.081111000000003,Francisco Beltrao,3476.399583333334,3476.399583333334,3476.399583333334,951.8830694444446,59.27222222222223,57.89722222222223,93.19583333333334
-54.09388899999999,-25.295278,Medianeira,1.6870653685674548,2.1643949930458977,2.3870653685674545,976.3263560500694,60.97635605006954,60.107093184979135,93.82426778242676
-54.58805600000001,-25.547778,Foz do Iguacu,2.527083333333333,3.7202777777777776,4.37875,1006.166625,62.75694444444444,53.208333333333336,78.32083333333334
-54.056667,-24.556110999999994,Marechal Candido Rondon,3488.0469444444443,3488.0469444444443,3488.0469444444443,976.594263888889,61.7375,57.57083333333333,83.45694444444445
-52.465278000000005,-23.073056000000005,Paranavai,3474.714880952381,3474.714880952381,3474.714880952381,,,,
-50.16194400000001,-25.094999999999995,Ponta Grossa,4.417524339360223,5.60125173852573,6.296105702364396,917.0739777468706,65.02781641168289,64.00278164116828,114.33796940194715
