City_long,City_lat,city,pm1.0_atm,pm2.5_atm,pm10.0_atm,pressure,temperature,humidity,voc
-49.273056,-25.427778,Curitiba,4.310815450643777,5.573991416309013,6.555225321888412,906.8787339055796,76.56866952789699,70.95278969957081,97.92484978540772
-50.382778000000016,-25.874167,Sao Mateus do Sul,7.558090128755365,9.307832618025753,10.048304721030044,922.07669527897,82.48497854077253,60.25107296137339,72.83776824034337
-53.05499999999998,-26.081111000000007,Francisco Beltrao,11.602274678111588,14.535793991416307,15.381201716738197,939.117296137339,76.73390557939913,66.74248927038627,131.34377682403434
-54.093889,-25.295278,Medianeira,11.452381974248926,14.022832618025747,15.123798283261802,961.7877253218886,86.92274678111588,47.93562231759657,140.74416309012875
-54.58805600000002,-25.547778,Foz do Iguacu,26.304742489270385,36.88133047210301,46.14100858369098,989.0230901287554,86.2274678111588,47.34334763948498,119.7024034334764
-54.056666999999976,-24.556110999999994,Marechal Candido Rondon,13.558583690987122,16.378669527896996,17.624184549356222,962.7384549356224,87.3175965665236,53.06008583690987,61.72450643776825
-52.383056,-24.045556,Campo Mourao,11.72783261802575,14.189463519313303,15.606845493562233,942.5491416309012,83.61802575107296,62.53648068669528,98.46806866952788
-50.16194399999999,-25.095,Ponta Grossa,2.815021459227468,3.773798283261804,4.3138412017167385,908.3674678111588,75.60515021459227,74.24034334763948,82.93798283261803
-51.16277799999998,-23.310278000000007,Londrina,0.7386842105263157,1.1126315789473689,1.5492105263157896,950.1202631578948,88.3157894736842,57.526315789473685,117.73027777777776
