City_long,City_lat,city,pm1.0_atm,pm2.5_atm,pm10.0_atm,pressure,temperature,humidity,voc
-49.273056,-25.427778,Curitiba,11.944923504867877,15.287760778859528,18.17913769123783,914.0173574408902,66.44923504867872,55.49513212795549,82.90820584144646
-50.382778,-25.874167,Sao Mateus do Sul,21.59998930632859,27.512427978767263,31.01558106575964,931.7196574804163,62.54998711605855,53.56545815295816,73.55069444444445
-53.05499999999999,-26.081111,Francisco Beltrao,3537.9846381093057,3537.9846381093057,3537.9846381093057,948.675081240768,62.61004431314623,55.32200886262925,112.2821270310192
-54.09388899999999,-25.295278,Medianeira,6.434492350486787,7.629068150208622,8.035605006954103,972.18561891516,68.11265646731572,48.89151599443672,116.89012517385255
-54.58805600000001,-25.547778,Foz do Iguacu,10.08986111111111,13.78,15.570972222222222,1001.055875,64.49444444444444,52.30138888888889,101.32222222222222
-54.056667,-24.556110999999994,Marechal Candido Rondon,2728.8954166666667,2729.20875,2729.8063888888887,972.8763472222222,69.78472222222223,44.42083333333333,77.55277777777778
-50.16194400000001,-25.094999999999995,Ponta Grossa,15.844923504867872,21.29318497913769,23.358553546592493,916.4222392211404,67.80250347705146,52.64951321279555,93.34909596662033
