City_long,City_lat,city,pm1.0_atm,pm2.5_atm,pm10.0_atm,pressure,temperature,humidity,voc
-49.273056,-25.427778,Curitiba,1.4108910891089108,1.739179632248939,2.0247524752475248,913.9856718528996,68.65063649222066,71.34512022630834,79.93917963224894
-50.382778,-25.874167,Sao Mateus do Sul,6.4357833990109725,8.072593494050379,8.818397369031063,930.4876982015916,74.98270263483232,60.46782954721064,85.916401058569
-53.05499999999999,-26.081111,Francisco Beltrao,3331.012307692308,3331.012307692308,3331.012307692308,946.9739440559442,75.1916083916084,68.98601398601399,136.6027972027972
-54.093889,-25.295278000000003,Medianeira,4.1721059972106,4.920083682008368,5.432775453277546,969.7130264993026,79.06834030683403,62.27754532775453,137.25383542538356
-54.58805600000001,-25.547778,Foz do Iguacu,7.434722222222222,9.67027777777778,10.66875,997.4345,81.275,61.40833333333333,124.74166666666666
-54.05666699999998,-24.556111,Marechal Candido Rondon,1668.670784883721,1669.431976744186,1669.9248546511628,970.3580959302326,79.37063953488372,58.638081395348834,101.68175182481752
-52.465278000000005,-23.073056000000005,Paranavai,3331.8335294117646,3331.8335294117646,3331.8335294117646,,,,
-50.161944,-25.094999999999995,Ponta Grossa,4.206111111111112,5.304583333333333,5.792777777777778,915.9580277777778,71.1625,68.69027777777778,92.40138888888887
