City_long,City_lat,city,pm1.0_atm,pm2.5_atm,pm10.0_atm,pressure,temperature,humidity,voc
-49.273056,-25.427778,Curitiba,8.024054321444982,10.37865564772587,11.235352946177528,912.3261301726876,80.7922979759642,65.62415867598627,88.11258019525802
-50.382778,-25.874167000000003,Sao Mateus do Sul,7.525788194444445,10.263736111111111,11.642173611111112,927.7623958333332,85.40555555555557,55.28958333333333,72.49072222222222
-53.05499999999999,-26.081111,Francisco Beltrao,2.398263305322129,2.991806722689075,3.515742296918768,944.0684033613446,88.99439775910363,54.00980392156863,169.74960784313726
-54.093889,-25.295278000000003,Medianeira,4.058118055555556,4.718152777777777,5.214923611111111,966.4290694444444,95.09027777777776,46.76111111111111,169.2600277777778
-54.58805600000001,-25.547778,Foz do Iguacu,7.336944444444444,8.691305555555557,9.541486111111112,993.2758888888887,94.175,48.922222222222224,136.9034166666667
-54.05666699999999,-24.556111,Marechal Candido Rondon,8.938351877607788,10.90260778859527,11.746662030598053,967.2551114763772,90.0395540944915,52.00644834998104,106.84762952016688
-52.383056,-24.045556,Campo Mourao,1.921870653685675,2.204255910987482,2.641356050069541,946.561835883171,92.4575799721836,46.51877607788595,73.09507649513213
-52.465278000000005,-23.073056,Paranavai,11.626502946954814,12.967170923379175,14.824440078585464,,,,
-50.161944,-25.094999999999995,Ponta Grossa,3.079201388888889,3.820298611111111,4.261909722222222,913.100111111111,89.75555555555556,49.52916666666667,113.86773611111111
