City_long,City_lat,city,pm1.0_atm,pm2.5_atm,pm10.0_atm,pressure,temperature,humidity,voc
-53.05499999999999,-26.081111,Francisco Beltrao,,,,950.0464285714286,50.30952380952381,64.6984126984127,91.26294820717132
-54.093889,-25.295278,Medianeira,1668.314342629482,1668.5549800796812,1668.7247011952193,974.1385657370516,57.20318725099602,56.72111553784861,82.54980079681275
-54.588056000000016,-25.547778,Foz do Iguacu,4.944047619047619,6.982142857142857,8.037698412698413,1003.4040476190476,58.68253968253968,58.51190476190476,95.86904761904762
-52.46527800000002,-23.073056,Paranavai,3925.6901408450713,3925.6901408450713,3925.6901408450713,,,,
-54.05666699999999,-24.55611100000001,Marechal Candido Rondon,3371.731468531468,3371.732167832168,3371.7356643356643,974.656153846154,82.62237762237763,28.91608391608392,60.83098591549296
